[
  { "id": "00001", "departamentoId": "00", "nombre": "Bogotá", "codigo": "001", "lat": 4.710988, "lng": -74.072090 },
  { "id": "01001", "departamentoId": "01", "nombre": "Leticia", "codigo": "001", "lat": -4.215000, "lng": -69.940000 },
  { "id": "01002", "departamentoId": "01", "nombre": "Puerto Nariño", "codigo": "002", "lat": -3.770000, "lng": -70.390000 },
  { "id": "01003", "departamentoId": "01", "nombre": "La Chorrera", "codigo": "003", "lat": -4.800000, "lng": -69.950000 },
  { "id": "01004", "departamentoId": "01", "nombre": "El Encanto", "codigo": "004", "lat": -3.560000, "lng": -70.350000 },
  { "id": "01005", "departamentoId": "01", "nombre": "Tarapacá", "codigo": "005", "lat": -3.850000, "lng": -70.040000 },
  { "id": "01006", "departamentoId": "01", "nombre": "Puerto Santander", "codigo": "006", "lat": -3.600000, "lng": -70.000000 }
]
